[
  {
    "kakao_id": "2088789791",
    "name": "더 브레드 레지던스",
    "address": "서울 송파구 문정로 19",
    "category": "음식점 > 간식 > 제과,베이커리",
    "phone": "0502-5552-1281",
    "url": "http://place.map.kakao.com/2088789791",
    "distance_km": 0.16,
    "lat": 37.4863683827294,
    "lon": 127.124732118681
  },
  {
    "kakao_id": "636209233",
    "name": "오밀조밀베이크샵",
    "address": "서울 송파구 동남로2길 27-16",
    "category": "음식점 > 간식 > 제과,베이커리",
    "phone": "",
    "url": "http://place.map.kakao.com/636209233",
    "distance_km": 0.23,
    "lat": 37.486875294906,
    "lon": 127.12421397126
  },
  {
    "kakao_id": "569112349",
    "name": "베이글집",
    "address": "서울 송파구 문정로 7",
    "category": "음식점 > 간식 > 제과,베이커리",
    "phone": "070-4012-6543",
    "url": "http://place.map.kakao.com/569112349",
    "distance_km": 0.25,
    "lat": 37.4863145244617,
    "lon": 127.123682749569
  },
  {
    "kakao_id": "1700835629",
    "name": "스톤밀",
    "address": "서울 송파구 새말로15길 22",
    "category": "음식점 > 간식 > 제과,베이커리",
    "phone": "",
    "url": "http://place.map.kakao.com/1700835629",
    "distance_km": 0.25,
    "lat": 37.4862735048538,
    "lon": 127.129177828288
  },
  {
    "kakao_id": "1856377911",
    "name": "주빌리꽃케이크",
    "address": "서울 송파구 동남로6길 25-27",
    "category": "음식점 > 간식 > 제과,베이커리",
    "phone": "0503-7152-1523",
    "url": "http://place.map.kakao.com/1856377911",
    "distance_km": 0.28,
    "lat": 37.4882293861933,
    "lon": 127.126873400704
  },
  {
    "kakao_id": "253692652",
    "name": "엘리베이킹",
    "address": "서울 송파구 새말로11길 4",
    "category": "음식점 > 간식 > 제과,베이커리",
    "phone": "",
    "url": "http://place.map.kakao.com/253692652",
    "distance_km": 0.29,
    "lat": 37.483288446774004,
    "lon": 127.12753664768027
  },
  {
    "kakao_id": "1174657889",
    "name": "그루메",
    "address": "서울 송파구 동남로6길 26",
    "category": "음식점 > 간식 > 제과,베이커리",
    "phone": "0503-7153-6237",
    "url": "http://place.map.kakao.com/1174657889",
    "distance_km": 0.29,
    "lat": 37.4881375602553,
    "lon": 127.125111588866
  },
  {
    "kakao_id": "285644079",
    "name": "엘모리아케이크",
    "address": "서울 송파구 송파대로22길 24",
    "category": "음식점 > 간식 > 제과,베이커리",
    "phone": "010-5303-4057",
    "url": "http://place.map.kakao.com/285644079",
    "distance_km": 0.34,
    "lat": 37.4882960337149,
    "lon": 127.124356532836
  },
  {
    "kakao_id": "853049870",
    "name": "와플대학 문정캠퍼스",
    "address": "서울 송파구 새말로 120",
    "category": "음식점 > 간식 > 제과,베이커리 > 와플대학",
    "phone": "0502-5550-7807",
    "url": "http://place.map.kakao.com/853049870",
    "distance_km": 0.34,
    "lat": 37.482768504990865,
    "lon": 127.12759229569126
  },
  {
    "kakao_id": "1215360522",
    "name": "달섬",
    "address": "서울 송파구 송파대로22길 18",
    "category": "음식점 > 간식 > 제과,베이커리",
    "phone": "02-402-2345",
    "url": "http://place.map.kakao.com/1215360522",
    "distance_km": 0.35,
    "lat": 37.4880407086112,
    "lon": 127.123822412009
  },
  {
    "kakao_id": "1238422206",
    "name": "이그렉",
    "address": "서울 송파구 송이로36길 27",
    "category": "음식점 > 간식 > 제과,베이커리",
    "phone": "02-401-5052",
    "url": "http://place.map.kakao.com/1238422206",
    "distance_km": 0.36,
    "lat": 37.48489812551776,
    "lon": 127.13039997339655
  },
  {
    "kakao_id": "692514180",
    "name": "포카치아",
    "address": "서울 송파구 송이로36길 24",
    "category": "음식점 > 간식 > 제과,베이커리",
    "phone": "",
    "url": "http://place.map.kakao.com/692514180",
    "distance_km": 0.36,
    "lat": 37.485210684739,
    "lon": 127.13048192506
  },
  {
    "kakao_id": "791885497",
    "name": "그라동빵집",
    "address": "서울 송파구 동남로8길 29",
    "category": "음식점 > 간식 > 제과,베이커리",
    "phone": "02-6951-3407",
    "url": "http://place.map.kakao.com/791885497",
    "distance_km": 0.37,
    "lat": 37.4889417144691,
    "lon": 127.127216085529
  },
  {
    "kakao_id": "8114437",
    "name": "파리바게뜨 문정중앙점",
    "address": "서울 송파구 새말로 140",
    "category": "음식점 > 간식 > 제과,베이커리 > 파리바게뜨",
    "phone": "02-409-4076",
    "url": "http://place.map.kakao.com/8114437",
    "distance_km": 0.37,
    "lat": 37.4834394692039,
    "lon": 127.12951214262407
  },
  {
    "kakao_id": "1219420225",
    "name": "8084제빵소",
    "address": "서울 송파구 송파대로 155",
    "category": "음식점 > 간식 > 제과,베이커리",
    "phone": "",
    "url": "http://place.map.kakao.com/1219420225",
    "distance_km": 0.37,
    "lat": 37.4840819695712,
    "lon": 127.122681830992
  },
  {
    "kakao_id": "633202301",
    "name": "파리바게뜨 문정컬처밸리점",
    "address": "서울 송파구 송파대로 167",
    "category": "음식점 > 간식 > 제과,베이커리 > 파리바게뜨",
    "phone": "02-2054-3950",
    "url": "http://place.map.kakao.com/633202301",
    "distance_km": 0.38,
    "lat": 37.48496544801426,
    "lon": 127.12220839468817
  },
  {
    "kakao_id": "1832255801",
    "name": "요예베이커리",
    "address": "서울 송파구 새말로 155",
    "category": "음식점 > 간식 > 제과,베이커리",
    "phone": "0502-5552-5421",
    "url": "http://place.map.kakao.com/1832255801",
    "distance_km": 0.38,
    "lat": 37.48473396758723,
    "lon": 127.13055798122564
  },
  {
    "kakao_id": "902346022",
    "name": "스위티수",
    "address": "서울 송파구 송파대로 145",
    "category": "음식점 > 간식 > 제과,베이커리",
    "phone": "02-381-8633",
    "url": "http://place.map.kakao.com/902346022",
    "distance_km": 0.39,
    "lat": 37.48336348759971,
    "lon": 127.12304585445818
  },
  {
    "kakao_id": "1908958404",
    "name": "오븐시스터즈",
    "address": "서울 송파구 새말로 165",
    "category": "음식점 > 간식 > 제과,베이커리",
    "phone": "070-8885-0615",
    "url": "http://place.map.kakao.com/1908958404",
    "distance_km": 0.42,
    "lat": 37.4853441809653,
    "lon": 127.131162823275
  },
  {
    "kakao_id": "524816071",
    "name": "서서히",
    "address": "서울 송파구 동남로6길 12",
    "category": "음식점 > 간식 > 제과,베이커리",
    "phone": "",
    "url": "http://place.map.kakao.com/524816071",
    "distance_km": 0.43,
    "lat": 37.4892311132901,
    "lon": 127.124514124122
  },
  {
    "kakao_id": "1657350613",
    "name": "오라베이커리",
    "address": "서울 송파구 법원로4길 17",
    "category": "음식점 > 카페 > 테마카페 > 애견카페",
    "phone": "0502-5553-6133",
    "url": "http://place.map.kakao.com/1657350613",
    "distance_km": 0.45,
    "lat": 37.48315682705,
    "lon": 127.122496023723
  },
  {
    "kakao_id": "1176380930",
    "name": "케이베이커리글로벌",
    "address": "서울 송파구 법원로 114",
    "category": "서비스,산업 > 기업",
    "phone": "",
    "url": "http://place.map.kakao.com/1176380930",
    "distance_km": 0.45,
    "lat": 37.4855817791103,
    "lon": 127.1212935493
  },
  {
    "kakao_id": "109550107",
    "name": "로지앤크림",
    "address": "서울 송파구 법원로4길 10",
    "category": "음식점 > 간식 > 제과,베이커리",
    "phone": "0503-7154-0886",
    "url": "http://place.map.kakao.com/109550107",
    "distance_km": 0.47,
    "lat": 37.4826158791255,
    "lon": 127.122826416196
  },
  {
    "kakao_id": "1541670189",
    "name": "플라워베이커리 문정본점",
    "address": "서울 송파구 법원로 114",
    "category": "음식점 > 카페 > 테마카페 > 디저트카페",
    "phone": "02-2283-1345",
    "url": "http://place.map.kakao.com/1541670189",
    "distance_km": 0.47,
    "lat": 37.48605415109,
    "lon": 127.121055738397
  },
  {
    "kakao_id": "1981968404",
    "name": "플라워아티장베이커리 문정",
    "address": "서울 송파구 법원로 114",
    "category": "음식점 > 간식 > 제과,베이커리",
    "phone": "02-2283-1345",
    "url": "http://place.map.kakao.com/1981968404",
    "distance_km": 0.48,
    "lat": 37.4860550995861,
    "lon": 127.12100938183
  },
  {
    "kakao_id": "13024752",
    "name": "파리바게뜨 문정카페점",
    "address": "서울 송파구 송이로 238",
    "category": "음식점 > 간식 > 제과,베이커리 > 파리바게뜨",
    "phone": "070-4257-0365",
    "url": "http://place.map.kakao.com/13024752",
    "distance_km": 0.49,
    "lat": 37.487810069328866,
    "lon": 127.13131525772211
  },
  {
    "kakao_id": "501931209",
    "name": "테이크어브레드",
    "address": "서울 송파구 송파대로 167",
    "category": "음식점 > 간식 > 제과,베이커리",
    "phone": "02-702-3440",
    "url": "http://place.map.kakao.com/501931209",
    "distance_km": 0.5,
    "lat": 37.4846613180036,
    "lon": 127.120933640633
  },
  {
    "kakao_id": "1981300957",
    "name": "케이크칼미아",
    "address": "서울 송파구 법원로4길 5",
    "category": "음식점 > 간식 > 제과,베이커리",
    "phone": "0502-5553-5790",
    "url": "http://place.map.kakao.com/1981300957",
    "distance_km": 0.51,
    "lat": 37.48291420299643,
    "lon": 127.12186925418354
  },
  {
    "kakao_id": "836230877",
    "name": "한스 문정점",
    "address": "서울 송파구 법원로 90",
    "category": "음식점 > 간식 > 제과,베이커리 > 한스",
    "phone": "02-408-7345",
    "url": "http://place.map.kakao.com/836230877",
    "distance_km": 0.51,
    "lat": 37.48329483300236,
    "lon": 127.12147640840492
  },
  {
    "kakao_id": "470540287",
    "name": "뚜레쥬르 카페송파파크하비오점",
    "address": "서울 송파구 송파대로 111",
    "category": "음식점 > 간식 > 제과,베이커리 > 뚜레쥬르",
    "phone": "070-4530-6180",
    "url": "http://place.map.kakao.com/470540287",
    "distance_km": 0.51,
    "lat": 37.481481190336005,
    "lon": 127.12399474674523
  },
  {
    "kakao_id": "1932640382",
    "name": "복호두 문정점",
    "address": "서울 송파구 법원로 90",
    "category": "음식점 > 간식 > 제과,베이커리 > 복호두",
    "phone": "",
    "url": "http://place.map.kakao.com/1932640382",
    "distance_km": 0.52,
    "lat": 37.483258943765144,
    "lon": 127.12132936668729
  },
  {
    "kakao_id": "1860156737",
    "name": "순심이네과자점",
    "address": "서울 송파구 법원로 128",
    "category": "음식점 > 간식 > 제과,베이커리",
    "phone": "",
    "url": "http://place.map.kakao.com/1860156737",
    "distance_km": 0.53,
    "lat": 37.486870957554956,
    "lon": 127.12057311781352
  },
  {
    "kakao_id": "1672294360",
    "name": "미뇽마니에르",
    "address": "서울 송파구 법원로 128",
    "category": "음식점 > 간식 > 제과,베이커리",
    "phone": "",
    "url": "http://place.map.kakao.com/1672294360",
    "distance_km": 0.54,
    "lat": 37.4868458746831,
    "lon": 127.120430609648
  },
  {
    "kakao_id": "667557677",
    "name": "외계인방앗간 문정점",
    "address": "서울 송파구 송파대로 111",
    "category": "음식점 > 간식 > 제과,베이커리",
    "phone": "02-430-5989",
    "url": "http://place.map.kakao.com/667557677",
    "distance_km": 0.61,
    "lat": 37.48118552731316,
    "lon": 127.1223933117087
  },
  {
    "kakao_id": "1202456853",
    "name": "미친찹쌀꽈배기 장지동점",
    "address": "서울 송파구 새말로8길 29",
    "category": "음식점 > 간식 > 제과,베이커리",
    "phone": "02-483-2002",
    "url": "http://place.map.kakao.com/1202456853",
    "distance_km": 0.62,
    "lat": 37.4801193286409,
    "lon": 127.126952396257
  },
  {
    "kakao_id": "679247814",
    "name": "포틀로베이커리",
    "address": "서울 송파구 법원로11길 7",
    "category": "음식점 > 카페",
    "phone": "010-2877-0296",
    "url": "http://place.map.kakao.com/679247814",
    "distance_km": 0.62,
    "lat": 37.485298998209025,
    "lon": 127.11939129858067
  },
  {
    "kakao_id": "706569422",
    "name": "숲속호두 문정점",
    "address": "서울 송파구 법원로11길 7",
    "category": "음식점 > 간식 > 제과,베이커리",
    "phone": "02-3400-0231",
    "url": "http://place.map.kakao.com/706569422",
    "distance_km": 0.66,
    "lat": 37.485653578344234,
    "lon": 127.11891132414523
  },
  {
    "kakao_id": "1125002238",
    "name": "부우",
    "address": "서울 송파구 새말로 62",
    "category": "음식점 > 간식 > 제과,베이커리",
    "phone": "",
    "url": "http://place.map.kakao.com/1125002238",
    "distance_km": 0.69,
    "lat": 37.481072264039796,
    "lon": 127.12126364735451
  },
  {
    "kakao_id": "1639558566",
    "name": "몽푸르",
    "address": "서울 송파구 새말로 62",
    "category": "음식점 > 간식 > 제과,베이커리",
    "phone": "0507-1405-0209",
    "url": "http://place.map.kakao.com/1639558566",
    "distance_km": 0.71,
    "lat": 37.4808967473993,
    "lon": 127.121088119538
  },
  {
    "kakao_id": "2120623691",
    "name": "소림사 문정점",
    "address": "서울 송파구 법원로11길 11",
    "category": "음식점 > 간식 > 제과,베이커리",
    "phone": "",
    "url": "http://place.map.kakao.com/2120623691",
    "distance_km": 0.72,
    "lat": 37.4846306241398,
    "lon": 127.118322888296
  },
  {
    "kakao_id": "362982046",
    "name": "아티제 송파아이파크점",
    "address": "서울 송파구 법원로 55",
    "category": "음식점 > 간식 > 제과,베이커리 > 아티제",
    "phone": "02-3402-2155",
    "url": "http://place.map.kakao.com/362982046",
    "distance_km": 0.73,
    "lat": 37.4801424769963,
    "lon": 127.122086349453
  },
  {
    "kakao_id": "127731310",
    "name": "올인베이커리 송파문정점",
    "address": "서울 송파구 새말로 62",
    "category": "음식점 > 간식 > 제과,베이커리",
    "phone": "",
    "url": "http://place.map.kakao.com/127731310",
    "distance_km": 0.73,
    "lat": 37.4807915807479,
    "lon": 127.120842608329
  },
  {
    "kakao_id": "22804822",
    "name": "파리바게뜨 송파푸르지오점",
    "address": "서울 송파구 새말로 62",
    "category": "음식점 > 간식 > 제과,베이커리 > 파리바게뜨",
    "phone": "02-400-4952",
    "url": "http://place.map.kakao.com/22804822",
    "distance_km": 0.74,
    "lat": 37.480792544188695,
    "lon": 127.12078155715609
  },
  {
    "kakao_id": "8114438",
    "name": "파리바게뜨 문정현대점",
    "address": "서울 송파구 동남로 167",
    "category": "음식점 > 간식 > 제과,베이커리 > 파리바게뜨",
    "phone": "02-3012-0089",
    "url": "http://place.map.kakao.com/8114438",
    "distance_km": 0.83,
    "lat": 37.49297133073106,
    "lon": 127.12859117513376
  },
  {
    "kakao_id": "589450462",
    "name": "삼송빵집 현대시티몰가든파이브점",
    "address": "서울 송파구 충민로 66",
    "category": "음식점 > 간식 > 제과,베이커리 > 삼송빵집",
    "phone": "02-2673-2025",
    "url": "http://place.map.kakao.com/589450462",
    "distance_km": 0.85,
    "lat": 37.47823066560411,
    "lon": 127.12455239836027
  },
  {
    "kakao_id": "1344654111",
    "name": "소보소보 3호점",
    "address": "서울 송파구 충민로 66",
    "category": "음식점 > 간식 > 제과,베이커리",
    "phone": "02-2673-2065",
    "url": "http://place.map.kakao.com/1344654111",
    "distance_km": 0.85,
    "lat": 37.4780850109811,
    "lon": 127.125112916948
  },
  {
    "kakao_id": "638530416",
    "name": "송사부수제쌀고로케 NC송파점",
    "address": "서울 송파구 충민로 66",
    "category": "음식점 > 간식 > 제과,베이커리 > 송사부수제쌀고로케",
    "phone": "070-8839-9865",
    "url": "http://place.map.kakao.com/638530416",
    "distance_km": 0.87,
    "lat": 37.4778644642307,
    "lon": 127.125772797384
  },
  {
    "kakao_id": "787788884",
    "name": "세인트폴베이커리카페",
    "address": "서울 송파구 송이로27길 5-10",
    "category": "음식점 > 간식 > 제과,베이커리",
    "phone": "0503-7153-7356",
    "url": "http://place.map.kakao.com/787788884",
    "distance_km": 0.89,
    "lat": 37.4936865549405,
    "lon": 127.125401282953
  },
  {
    "kakao_id": "1058854685",
    "name": "진스브레드",
    "address": "서울 송파구 법원로11길 25",
    "category": "음식점 > 간식 > 제과,베이커리",
    "phone": "010-9266-0610",
    "url": "http://place.map.kakao.com/1058854685",
    "distance_km": 0.89,
    "lat": 37.4848875962668,
    "lon": 127.116322011619
  }
]